{"215":{"name":"Fresno CDTC","number":215,"region":"4","officeHours":"0700-1600,0700-1600,0800-1600,0700-1600,0700-1600,n,n","phone":"(800)777-0133","address":"735 E North Ave, Fresno, CA 93725","latitude":"36.692246","longitude":"-119.778029","nrby1":505,"nrby2":646,"nrby3":580,"nrby4":633,"nrby5":533,"cDLID":false,"cDLPC":false,"cVR":false,"cCDL":true,"cMDT":false,"cQueue":false,"cSST":false},"501":{"name":"Sacramento","number":501,"region":"3","officeHours":"0800-1700,0800-1700,0900-1700,0800-1700,0800-1700,n,n","phone":"(800)777-0133","address":"4700 Broadway, Sacramento, CA 95820","latitude":"38.546100","longitude":"-121.450900","nrby1":602,"nrby2":625,"nrby3":598,"nrby4":655,"nrby5":0,"cDLID":true,"cDLPC":false,"cVR":true,"cCDL":false,"cMDT":true,"cQueue":true,"cSST":true},"502":{"name":"Los Angeles","number":502,"region":"6","officeHours":"0800-1700,0800-1700,0900-1700,0800-1700,0800-1700,n,n","phone":"(800)777-0133","address":"3615 S. Hope Street, Los Angeles, CA 90007","latitude":"34.018200","longitude":"-118.278700","nrby1":610,"nrby2":617,"nrby3":576,"nrby4":511,"nrby5":0,"cDLID":true,"cDLPC":false,"cVR":true,"cCDL":false,"cMDT":false,"cQueue":true,"cSST":true},"503":{"name":"San Francisco","number":503,"region":"1","officeHours":"0800-1700,0800-1700,0900-1700,0800-1700,0800-1700,n,n","phone":"(800)777-0133","address":"1377 Fell Street, San Francisco, CA 94117","latitude":"37.7736","longitude":"-122.4404","nrby1":599,"nrby2":504,"nrby3":593,"nrby4":604,"nrby5":0,"cDLID":true,"cDLPC":false,"cVR":true,"cCDL":false,"cMDT":false,"cQueue":true,"cSST":false},"504":{"name":"Oakland","number":504,"region":"2","officeHours":"0800-1700,0800-1700,0900-1700,0800-1700,0800-1700,n,n","phone":"(800)777-0133","address":"5300 Claremont Avenue, Oakland, CA 94618","latitude":"37.8400","longitude":"-122.2597","nrby1":604,"nrby2":503,"nrby3":599,"nrby4":579,"nrby5":0,"cDLID":true,"cDLPC":false,"cVR":true,"cCDL":false,"cMDT":false,"cQueue":true,"cSST":false},"505":{"name":"Fresno","number":505,"region":"4","officeHours":"0800-1700,0800-1700,0900-1700,0800-1700,0800-1700,n,n","phone":"(800)777-0133","address":"655 W. Olive Avenue, Fresno, CA 93728","latitude":"36.757500","longitude":"-119.819400","nrby1":646,"nrby2":580,"nrby3":533,"nrby4":633,"nrby5":0,"cDLID":true,"cDLPC":false,"cVR":true,"cCDL":false,"cMDT":false,"cQueue":true,"cSST":true},"506":{"name":"San Diego","number":506,"region":"8","officeHours":"0800-1700,0800-1700,0900-1700,0800-1700,0800-1700,n,n","phone":"(800)777-0133","address":"3960 Normal Street, San Diego, CA 92103","latitude":"32.7503","longitude":"-117.1490","nrby1":519,"nrby2":613,"nrby3":669,"nrby4":677,"nrby5":0,"cDLID":true,"cDLPC":false,"cVR":true,"cCDL":false,"cMDT":false,"cQueue":true,"cSST":false},"507":{"name":"Long Beach","number":507,"region":"6","officeHours":"0800-1700,0800-1700,0900-1700,0800-1700,0800-1700,n,n","phone":"(800)777-0133","address":"3700 East Willow Street, Long Beach, CA 90815","latitude":"33.803700","longitude":"-118.149400","nrby1":698,"nrby2":606,"nrby3":607,"nrby4":611,"nrby5":608,"cDLID":true,"cDLPC":false,"cVR":true,"cCDL":false,"cMDT":false,"cQueue":true,"cSST":false},"508":{"name":"Hollywood","number":508,"region":"5","officeHours":"0800-1700,0800-1700,0900-1700,0800-1700,0800-1700,n,n","phone":"(800)777-0133","address":"803 Cole Avenue, Hollywood, CA 90038","latitude":"34.085300","longitude":"-118.329900","nrby1":510,"nrby2":502,"nrby3":617,"nrby4":652,"nrby5":0,"cDLID":true,"cDLPC":false,"cVR":false,"cCDL":false,"cMDT":false,"cQueue":true,"cSST":false},"509":{"name":"Pasadena","number":509,"region":"6","officeHours":"0800-1700,0800-1700,0900-1700,0800-1700,0800-1700,n,n","phone":"(800)777-0133","address":"49 S. Rosemead Boulevard, Pasadena, CA 91107","latitude":"34.145200","longitude":"-118.074200","nrby1":510,"nrby2":618,"nrby3":511,"nrby4":617,"nrby5":0,"cDLID":true,"cDLPC":false,"cVR":true,"cCDL":false,"cMDT":false,"cQueue":true,"cSST":true},"510":{"name":"Glendale","number":510,"region":"5","officeHours":"0800-1700,0800-1700,0900-1700,0800-1700,0800-1700,n,n","phone":"(800)777-0133","address":"1335 W. Glenoaks Boulevard, Glendale, CA 91201","latitude":"34.166700","longitude":"-118.283300","nrby1":617,"nrby2":509,"nrby3":587,"nrby4":502,"nrby5":0,"cDLID":true,"cDLPC":false,"cVR":true,"cCDL":false,"cMDT":false,"cQueue":true,"cSST":true},"511":{"name":"Montebello","number":511,"region":"6","officeHours":"0800-1700,0800-1700,0900-1700,0800-1700,0800-1700,n,n","phone":"(800)777-0133","address":"424 N. Wilcox Avenue, Montebello, CA 90640","latitude":"34.0194","longitude":"-118.1227","nrby1":576,"nrby2":591,"nrby3":617,"nrby4":502,"nrby5":0,"cDLID":true,"cDLPC":false,"cVR":true,"cCDL":true,"cMDT":false,"cQueue":true,"cSST":true},"512":{"name":"San Bernardino","number":512,"region":"7","officeHours":"0800-1700,0800-1700,0900-1700,0800-1700,0800-1700,n,n","phone":"(800)777-0133","address":"1310 N. Waterman Avenue, San Bernardino, CA 92404","latitude":"34.1234","longitude":"-117.2788","nrby1":626,"nrby2":657,"nrby3":545,"nrby4":586,"nrby5":0,"cDLID":true,"cDLPC":false,"cVR":true,"cCDL":false,"cMDT":false,"cQueue":true,"cSST":false},"513":{"name":"Truckee","number":513,"region":"1","officeHours":"0800-1700,0800-1700,0900-1700,0800-1700,0800-1700,n,n","phone":"(800)777-0133","address":"11357 Donner Pass Road Suite I, Truckee, CA 96162","latitude":"39.32611","longitude":"-120.210732","nrby1":0,"nrby2":0,"nrby3":0,"nrby4":0,"nrby5":0,"cDLID":true,"cDLPC":false,"cVR":true,"cCDL":false,"cMDT":false,"cQueue":false,"cSST":false},"514":{"name":"Culver City","number":514,"region":"5","officeHours":"0800-1700,0800-1700,0900-1700,0800-1700,0800-1700,n,n","phone":"(800)777-0133","address":"11400 W Washington Blvd, Culver City, CA 90066","latitude":"34.002309","longitude":"-118.415368","nrby1":616,"nrby2":610,"nrby3":652,"nrby4":609,"nrby5":508,"cDLID":true,"cDLPC":false,"cVR":true,"cCDL":false,"cMDT":false,"cQueue":true,"cSST":true},"515":{"name":"Van Nuys","number":515,"region":"5","officeHours":"0800-1700,0800-1700,0900-1700,0800-1700,0800-1700,n,n","phone":"(800)777-0133","address":"14920 Vanowen Street, Van Nuys, CA 91405","latitude":"34.193900","longitude":"-118.458200","nrby1":693,"nrby2":587,"nrby3":637,"nrby4":510,"nrby5":652,"cDLID":true,"cDLPC":false,"cVR":true,"cCDL":false,"cMDT":false,"cQueue":true,"cSST":true},"516":{"name":"San Jose","number":516,"region":"2","officeHours":"0800-1700,0800-1700,0900-1700,0800-1700,0800-1700,n,n","phone":"(800)777-0133","address":"111 W. Alma Avenue, San Jose, CA 95110","latitude":"37.315000","longitude":"-121.876300","nrby1":645,"nrby2":632,"nrby3":668,"nrby4":644,"nrby5":631,"cDLID":false,"cDLPC":false,"cVR":true,"cCDL":false,"cMDT":false,"cQueue":true,"cSST":false},"517":{"name":"Stockton","number":517,"region":"3","officeHours":"0800-1700,0800-1700,0900-1700,0800-1700,0800-1700,n,n","phone":"(800)777-0133","address":"55 South Lincoln Street, Stockton, CA 95203","latitude":"37.951300","longitude":"-121.297600","nrby1":622,"nrby2":658,"nrby3":642,"nrby4":557,"nrby5":0,"cDLID":true,"cDLPC":false,"cVR":true,"cCDL":true,"cMDT":false,"cQueue":true,"cSST":true},"519":{"name":"San Diego Clairemont","number":519,"region":"8","officeHours":"0800-1700,0800-1700,0900-1700,0800-1700,0800-1700,n,n","phone":"(800)777-0133","address":"4375 Derrick Drive, San Diego, CA 92117","latitude":"32.823500","longitude":"-117.183200","nrby1":506,"nrby2":613,"nrby3":676,"nrby4":669,"nrby5":0,"cDLID":true,"cDLPC":false,"cVR":true,"cCDL":false,"cMDT":false,"cQueue":true,"cSST":true},"520":{"name":"Chico","number":520,"region":"1","officeHours":"0800-1700,0800-1700,0900-1700,0800-1700,0800-1700,n,n","phone":"(800)777-0133","address":"107 Parmac Rd #1, Chico, CA 95926","latitude":"39.7528","longitude":"-121.8491","nrby1":558,"nrby2":551,"nrby3":562,"nrby4":541,"nrby5":0,"cDLID":true,"cDLPC":false,"cVR":true,"cCDL":false,"cMDT":false,"cQueue":true,"cSST":false},"521":{"name":"Jackson","number":521,"region":"3","officeHours":"0800-1700,0800-1700,0900-1700,0800-1700,0800-1700,n,n","phone":"(800)777-0133","address":"201 Clinton Road, Jackson, CA 95642","latitude":"38.342199","longitude":"-120.76362","nrby1":525,"nrby2":622,"nrby3":0,"nrby4":569,"nrby5":602,"cDLID":true,"cDLPC":false,"cVR":true,"cCDL":false,"cMDT":false,"cQueue":false,"cSST":false},"522":{"name":"Oroville","number":522,"region":"1","officeHours":"0800-1700,0800-1700,0900-1700,0800-1700,0800-1700,n,n","phone":"(800)777-0133","address":"775 Mitchell Avenue, Oroville, CA 95965","latitude":"39.504455","longitude":"-121.565331","nrby1":0,"nrby2":0,"nrby3":0,"nrby4":0,"nrby5":0,"cDLID":true,"cDLPC":false,"cVR":true,"cCDL":false,"cMDT":false,"cQueue":false,"cSST":false},"523":{"name":"Concord","number":523,"region":"3","officeHours":"0800-1700,0800-1700,0900-1700,0800-1700,0800-1700,n,n","phone":"(800)777-0133","address":"2070 Diamond Boulevard, Concord, CA 94520","latitude":"37.974700","longitude":"-122.056600","nrby1":624,"nrby2":592,"nrby3":554,"nrby4":504,"nrby5":0,"cDLID":true,"cDLPC":false,"cVR":true,"cCDL":false,"cMDT":false,"cQueue":true,"cSST":true},"524":{"name":"Crescent City","number":524,"region":"1","officeHours":"0800-1700,0800-1700,0900-1700,0800-1700,0800-1700,n,n","phone":"(800)777-0133","address":"1475 Parkway Drive, Crescent City, CA 95531","latitude":"41.771900","longitude":"-124.184700","nrby1":0,"nrby2":0,"nrby3":0,"nrby4":0,"nrby5":0,"cDLID":true,"cDLPC":false,"cVR":true,"cCDL":false,"cMDT":false,"cQueue":false,"cSST":false},"525":{"name":"Placerville","number":525,"region":"3","officeHours":"0800-1700,0800-1700,0900-1700,0800-1700,0800-1700,n,n","phone":"(800)777-0133","address":"2919 Cold Springs Road, Placerville, CA 95667","latitude":"38.7347","longitude":"-120.8251","nrby1":655,"nrby2":625,"nrby3":501,"nrby4":602,"nrby5":0,"cDLID":true,"cDLPC":false,"cVR":true,"cCDL":false,"cMDT":false,"cQueue":true,"cSST":false},"526":{"name":"Eureka","number":526,"region":"1","officeHours":"0800-1700,0800-1700,0900-1700,0800-1700,0800-1700,n,n","phone":"(800)777-0133","address":"322 W. 15th Street, Eureka, CA 95501","latitude":"40.7932","longitude":"-124.1745","nrby1":551,"nrby2":535,"nrby3":558,"nrby4":555,"nrby5":0,"cDLID":true,"cDLPC":false,"cVR":true,"cCDL":true,"cMDT":false,"cQueue":true,"cSST":false},"527":{"name":"El Centro","number":527,"region":"8","officeHours":"0800-1700,0800-1700,0900-1700,0800-1700,0800-1700,n,n","phone":"(800)777-0133","address":"233 N. Imperial Avenue, El Centro, CA 92243","latitude":"32.794800","longitude":"-115.569400","nrby1":597,"nrby2":578,"nrby3":659,"nrby4":669,"nrby5":0,"cDLID":true,"cDLPC":false,"cVR":true,"cCDL":true,"cMDT":false,"cQueue":true,"cSST":false},"528":{"name":"Blythe","number":528,"region":"8","officeHours":"0800-1700,0800-1700,0900-1700,0800-1700,0800-1700,n,n","phone":"(800)777-0133","address":"430 S Broadway, Blythe, CA 92225","latitude":"33.6042","longitude":"-114.5962","nrby1":0,"nrby2":0,"nrby3":0,"nrby4":0,"nrby5":0,"cDLID":true,"cDLPC":false,"cVR":true,"cCDL":false,"cMDT":false,"cQueue":false,"cSST":false},"529":{"name":"Bakersfield","number":529,"region":"4","officeHours":"0800-1700,0800-1700,0900-1700,0800-1700,0800-1700,n,n","phone":"(800)777-0133","address":"3120 F Street, Bakersfield, CA 93301","latitude":"35.388300","longitude":"-119.022500","nrby1":679,"nrby2":660,"nrby3":615,"nrby4":661,"nrby5":537,"cDLID":true,"cDLPC":false,"cVR":true,"cCDL":true,"cMDT":false,"cQueue":true,"cSST":true},"530":{"name":"Lakeport","number":530,"region":"1","officeHours":"0800-1700,0800-1700,0900-1700,0800-1700,0800-1700,n,n","phone":"(800)777-0133","address":"965 Parallel Drive, Lakeport, CA 95453","latitude":"39.036613","longitude":"-122.927301","nrby1":0,"nrby2":0,"nrby3":0,"nrby4":0,"nrby5":0,"cDLID":true,"cDLPC":false,"cVR":true,"cCDL":false,"cMDT":false,"cQueue":false,"cSST":false},"531":{"name":"Susanville","number":531,"region":"1","officeHours":"0800-1700,0800-1700,0900-1700,0800-1700,0800-1700,n,n","phone":"(800)777-0133","address":"2615 Main Street, Susanville, CA 96130","latitude":"40.412221","longitude":"-120.63843","nrby1":0,"nrby2":0,"nrby3":0,"nrby4":0,"nrby5":0,"cDLID":true,"cDLPC":false,"cVR":true,"cCDL":false,"cMDT":false,"cQueue":false,"cSST":false},"532":{"name":"Pomona","number":532,"region":"7","officeHours":"0800-1700,0800-1700,0900-1700,0800-1700,0800-1700,n,n","phone":"(800)777-0133","address":"1600 S. Garey Avenue, Pomona, CA 91766","latitude":"34.0424","longitude":"-117.7495","nrby1":618,"nrby2":612,"nrby3":657,"nrby4":586,"nrby5":0,"cDLID":true,"cDLPC":false,"cVR":true,"cCDL":false,"cMDT":false,"cQueue":true,"cSST":true},"533":{"name":"Madera","number":533,"region":"4","officeHours":"0800-1700,0800-1700,0900-1700,0800-1700,0800-1700,n,n","phone":"(800)777-0133","address":"1206 Maple Street, Madera, CA 93637","latitude":"36.950100","longitude":"-120.071700","nrby1":505,"nrby2":646,"nrby3":580,"nrby4":536,"nrby5":0,"cDLID":true,"cDLPC":false,"cVR":true,"cCDL":false,"cMDT":false,"cQueue":true,"cSST":true},"534":{"name":"Corte Madera","number":534,"region":"1","officeHours":"0800-1700,0800-1700,0900-1700,0800-1700,0800-1700,n,n","phone":"(800)777-0133","address":"75 Tamal Vista Boulevard, Corte Madera, CA 94925","latitude":"37.9347","longitude":"-122.5177","nrby1":686,"nrby2":503,"nrby3":556,"nrby4":634,"nrby5":0,"cDLID":true,"cDLPC":false,"cVR":true,"cCDL":false,"cMDT":false,"cQueue":true,"cSST":false},"535":{"name":"Ukiah","number":535,"region":"1","officeHours":"0800-1700,0800-1700,0900-1700,0800-1700,0800-1700,n,n","phone":"(800)777-0133","address":"542 S. Orchard Avenue, Ukiah, CA 95482","latitude":"39.1476","longitude":"-123.1988","nrby1":555,"nrby2":634,"nrby3":540,"nrby4":534,"nrby5":0,"cDLID":true,"cDLPC":false,"cVR":true,"cCDL":true,"cMDT":false,"cQueue":true,"cSST":false},"536":{"name":"Merced","number":536,"region":"4","officeHours":"0800-1700,0800-1700,0900-1700,0800-1700,0800-1700,n,n","phone":"(800)777-0133","address":"1313 W. 12th Street, Merced, CA 95340","latitude":"37.300700","longitude":"-120.498700","nrby1":649,"nrby2":533,"nrby3":650,"nrby4":557,"nrby5":0,"cDLID":true,"cDLPC":false,"cVR":true,"cCDL":false,"cMDT":false,"cQueue":true,"cSST":true},"537":{"name":"Alturas","number":537,"region":"1","officeHours":"0800-1700,0800-1700,0900-1700,0800-1700,0800-1700,n,n","phone":"(800)777-0133","address":"903 W C St, Alturas, CA 96101","latitude":"41.491962","longitude":"-120.549754","nrby1":643,"nrby2":553,"nrby3":531,"nrby4":639,"nrby5":544,"cDLID":true,"cDLPC":false,"cVR":true,"cCDL":false,"cMDT":false,"cQueue":false,"cSST":false,"disclaimers":[{"id":21,"section":"OfficeHours","order":0,"english":"This office is closed 12:00 Noon through 1:15 PM daily","spanish":"Diariamente, esta oficina está cerrada desde las 12:00 PM del mediodía hasta la 1:15 PM de la tarde"}]},"538":{"name":"South Lake Tahoe","number":538,"region":"3","officeHours":"0800-1700,0800-1700,0900-1700,0800-1700,0800-1700,n,n","phone":"(800)777-0133","address":"3344 B Lake Tahoe Boulevard, South Lake Tahoe, CA 96150","latitude":"38.945748","longitude":"-119.96989","nrby1":0,"nrby2":0,"nrby3":0,"nrby4":0,"nrby5":0,"cDLID":true,"cDLPC":false,"cVR":true,"cCDL":false,"cMDT":false,"cQueue":false,"cSST":false},"539":{"name":"Salinas","number":539,"region":"2","officeHours":"0800-1700,0800-1700,0900-1700,0800-1700,0800-1700,n,n","phone":"(800)777-0133","address":"260 E. Laurel Drive, Salinas, CA 93906","latitude":"36.697900","longitude":"-121.647800","nrby1":567,"nrby2":583,"nrby3":623,"nrby4":546,"nrby5":0,"cDLID":true,"cDLPC":false,"cVR":true,"cCDL":true,"cMDT":false,"cQueue":true,"cSST":false},"540":{"name":"Napa","number":540,"region":"3","officeHours":"0800-1700,0800-1700,0900-1700,0800-1700,0800-1700,n,n","phone":"(800)777-0133","address":"2550 Napa Valley Corporate Drive, Napa, CA 94558","latitude":"38.255400","longitude":"-122.273900","nrby1":554,"nrby2":621,"nrby3":634,"nrby4":588,"nrby5":0,"cDLID":true,"cDLPC":false,"cVR":true,"cCDL":false,"cMDT":false,"cQueue":true,"cSST":false},"541":{"name":"Grass Valley","number":541,"region":"1","officeHours":"0800-1700,0800-1700,0900-1700,0800-1700,0800-1700,n,n","phone":"(800)777-0133","address":"435 Sutton Way, Grass Valley, CA 95945","latitude":"39.232100","longitude":"-121.036010","nrby1":570,"nrby2":562,"nrby3":673,"nrby4":543,"nrby5":0,"cDLID":true,"cDLPC":false,"cVR":true,"cCDL":false,"cMDT":false,"cQueue":true,"cSST":false},"542":{"name":"Santa Ana","number":542,"region":"7","officeHours":"0800-1700,0800-1700,0900-1700,0800-1700,0800-1700,n,n","phone":"(800)777-0133","address":"1330 E. First Street, Santa Ana, CA 92701","latitude":"33.745400","longitude":"-117.850600","nrby1":698,"nrby2":611,"nrby3":628,"nrby4":607,"nrby5":605,"cDLID":true,"cDLPC":false,"cVR":true,"cCDL":false,"cMDT":false,"cQueue":true,"cSST":true},"543":{"name":"Roseville","number":543,"region":"1","officeHours":"0800-1700,0800-1700,0900-1700,0800-1700,0800-1700,n,n","phone":"(800)777-0133","address":"7200 Galilee Road, Roseville, CA 95678","latitude":"38.775600","longitude":"-121.306100","nrby1":673,"nrby2":625,"nrby3":570,"nrby4":655,"nrby5":0,"cDLID":true,"cDLPC":false,"cVR":true,"cCDL":false,"cMDT":false,"cQueue":true,"cSST":false},"544":{"name":"Quincy","number":544,"region":"1","officeHours":"0800-1700,0800-1700,0900-1700,0800-1700,0800-1700,n,n","phone":"(800)777-0133","address":"1953 E. Main Street Suite 3, Quincy, CA 95971","latitude":"39.935062","longitude":"-120.882972","nrby1":0,"nrby2":0,"nrby3":0,"nrby4":0,"nrby5":0,"cDLID":true,"cDLPC":false,"cVR":true,"cCDL":false,"cMDT":false,"cQueue":false,"cSST":false},"545":{"name":"Riverside","number":545,"region":"7","officeHours":"0800-1700,0800-1700,0900-1700,0800-1700,0800-1700,n,n","phone":"(800)777-0133","address":"6280 Brockton Avenue, Riverside, CA 92506","latitude":"33.9575","longitude":"-117.3966","nrby1":656,"nrby2":586,"nrby3":657,"nrby4":512,"nrby5":0,"cDLID":true,"cDLPC":false,"cVR":true,"cCDL":false,"cMDT":false,"cQueue":true,"cSST":false},"546":{"name":"Hollister","number":546,"region":"2","officeHours":"0800-1700,0800-1700,0900-1700,0800-1700,0800-1700,n,n","phone":"(800)777-0133","address":"80 N. Sally Street, Hollister, CA 95023","latitude":"36.858174","longitude":"-121.399748","nrby1":0,"nrby2":0,"nrby3":0,"nrby4":0,"nrby5":0,"cDLID":true,"cDLPC":false,"cVR":true,"cCDL":false,"cMDT":false,"cQueue":false,"cSST":false},"547":{"name":"San Luis Obispo","number":547,"region":"5","officeHours":"0800-1700,0800-1700,0900-1700,0800-1700,0800-1700,n,n","phone":"(800)777-0133","address":"3190 S. Higuera Street, San Luis Obispo, CA 93401","latitude":"35.257500","longitude":"-120.669500","nrby1":692,"nrby2":574,"nrby3":563,"nrby4":589,"nrby5":0,"cDLID":true,"cDLPC":false,"cVR":true,"cCDL":true,"cMDT":false,"cQueue":true,"cSST":false},"548":{"name":"Redwood City","number":548,"region":"2","officeHours":"0800-1700,0800-1700,0900-1700,0800-1700,0800-1700,n,n","phone":"(800)777-0133","address":"300 Brewster Avenue, Redwood City, CA 94063","latitude":"37.492600","longitude":"-122.229000","nrby1":593,"nrby2":644,"nrby3":632,"nrby4":579,"nrby5":0,"cDLID":true,"cDLPC":false,"cVR":true,"cCDL":false,"cMDT":false,"cQueue":true,"cSST":false},"549":{"name":"Santa Barbara","number":549,"region":"5","officeHours":"0800-1700,0800-1700,0900-1700,0800-1700,0800-1700,n,n","phone":"(800)777-0133","address":"535 Castillo Street, Santa Barbara, CA 93101","latitude":"34.4129","longitude":"-119.7011","nrby1":670,"nrby2":560,"nrby3":636,"nrby4":630,"nrby5":0,"cDLID":true,"cDLPC":false,"cVR":true,"cCDL":false,"cMDT":false,"cQueue":true,"cSST":false},"550":{"name":"Capitola","number":550,"region":"2","officeHours":"0800-1700,0800-1700,0900-1700,0800-1700,0800-1700,n,n","phone":"(800)777-0133","address":"4200 Capitola Road, Capitola, CA 95010","latitude":"36.973200","longitude":"-121.962700","nrby1":583,"nrby2":640,"nrby3":668,"nrby4":623,"nrby5":516,"cDLID":true,"cDLPC":false,"cVR":true,"cCDL":false,"cMDT":false,"cQueue":true,"cSST":false},"551":{"name":"Redding","number":551,"region":"1","officeHours":"0800-1700,0800-1700,0900-1700,0800-1700,0800-1700,n,n","phone":"(800)777-0133","address":"2135 Civic Center Drive, Redding, CA 96001","latitude":"40.575900","longitude":"-122.380500","nrby1":558,"nrby2":520,"nrby3":562,"nrby4":526,"nrby5":0,"cDLID":true,"cDLPC":false,"cVR":true,"cCDL":true,"cMDT":false,"cQueue":true,"cSST":false},"552":{"name":"Yreka","number":552,"region":"1","officeHours":"0800-1700,0800-1700,0900-1700,0800-1700,0800-1700,n,n","phone":"(800)777-0133","address":"1848 Fort Jones Rd, Yreka, CA 96097","latitude":"41.702574","longitude":"-122.645547","nrby1":639,"nrby2":553,"nrby3":572,"nrby4":643,"nrby5":551,"cDLID":true,"cDLPC":false,"cVR":true,"cCDL":false,"cMDT":false,"cQueue":false,"cSST":false},"553":{"name":"Tulelake","number":553,"region":"1","officeHours":"1300-1700,0800-1700,0800-1200,n,n,n,n","phone":"(800)777-0133","address":"399 Main Street, Tulelake, CA 96134","latitude":"41.956200","longitude":"-121.477100","nrby1":537,"nrby2":639,"nrby3":552,"nrby4":643,"nrby5":551,"cDLID":true,"cDLPC":false,"cVR":true,"cCDL":false,"cMDT":false,"cQueue":false,"cSST":false,"disclaimers":[{"id":25,"section":"OfficeHours","order":0,"english":"This office is closed 12:00 Noon through 1:15 PM on Tuesdays.","spanish":"This office is closed 12:00 Noon through 1:15 PM on Tuesdays."},{"id":89,"section":"OfficeHours","order":1,"english":"This office is open the first and third full week of the month. ","spanish":"This office is open the first and third full week of the month. "}]},"554":{"name":"Vallejo","number":554,"region":"3","officeHours":"0800-1700,0800-1700,0900-1700,0800-1700,0800-1700,n,n","phone":"(800)777-0133","address":"200 Couch Street, Vallejo, CA 94590","latitude":"38.117100","longitude":"-122.251900","nrby1":540,"nrby2":621,"nrby3":556,"nrby4":523,"nrby5":0,"cDLID":true,"cDLPC":false,"cVR":true,"cCDL":false,"cMDT":false,"cQueue":true,"cSST":false},"555":{"name":"Santa Rosa","number":555,"region":"1","officeHours":"0800-1700,0800-1700,0900-1700,0800-1700,0800-1700,n,n","phone":"(800)777-0133","address":"2570 Corby Avenue, Santa Rosa, CA 95407","latitude":"38.415300","longitude":"-122.716900","nrby1":634,"nrby2":686,"nrby3":540,"nrby4":535,"nrby5":0,"cDLID":true,"cDLPC":false,"cVR":true,"cCDL":true,"cMDT":false,"cQueue":true,"cSST":false},"556":{"name":"El Cerrito","number":556,"region":"3","officeHours":"0800-1700,0800-1700,0900-1700,0800-1700,0800-1700,n,n","phone":"(800)777-0133","address":"6400 Manila Avenue, El Cerrito, CA 94530","latitude":"37.9161","longitude":"-122.3107","nrby1":504,"nrby2":554,"nrby3":604,"nrby4":534,"nrby5":0,"cDLID":true,"cDLPC":false,"cVR":true,"cCDL":false,"cMDT":false,"cQueue":true,"cSST":false},"557":{"name":"Modesto","number":557,"region":"4","officeHours":"0800-1700,0800-1700,0900-1700,0800-1700,0800-1700,n,n","phone":"(800)777-0133","address":"124 Burney Street, Modesto, CA 95354","latitude":"37.638400","longitude":"-120.988800","nrby1":649,"nrby2":658,"nrby3":642,"nrby4":517,"nrby5":0,"cDLID":true,"cDLPC":false,"cVR":true,"cCDL":true,"cMDT":false,"cQueue":true,"cSST":true},"558":{"name":"Red Bluff","number":558,"region":"1","officeHours":"0800-1700,0800-1700,0900-1700,0800-1700,0800-1700,n,n","phone":"(800)777-0133","address":"675 Monroe Street, Red Bluff, CA 96080","latitude":"40.1748","longitude":"-122.2390","nrby1":551,"nrby2":520,"nrby3":562,"nrby4":541,"nrby5":0,"cDLID":true,"cDLPC":false,"cVR":true,"cCDL":false,"cMDT":false,"cQueue":true,"cSST":false},"559":{"name":"Visalia","number":559,"region":"4","officeHours":"0800-1700,0800-1700,0900-1700,0800-1700,0800-1700,n,n","phone":"(800)777-0133","address":"1711 East Main Street, Visalia, CA 93292","latitude":"36.330200","longitude":"-119.273900","nrby1":594,"nrby2":565,"nrby3":573,"nrby4":633,"nrby5":0,"cDLID":true,"cDLPC":false,"cVR":true,"cCDL":false,"cMDT":false,"cQueue":true,"cSST":false},"560":{"name":"Ventura","number":560,"region":"5","officeHours":"0800-1700,0800-1700,0900-1700,0800-1700,0800-1700,n,n","phone":"(800)777-0133","address":"4260 Market Street, Ventura, CA 93003","latitude":"34.256700","longitude":"-119.236300","nrby1":630,"nrby2":636,"nrby3":549,"nrby4":663,"nrby5":0,"cDLID":true,"cDLPC":false,"cVR":true,"cCDL":true,"cMDT":false,"cQueue":true,"cSST":true},"561":{"name":"Woodland","number":561,"region":"3","officeHours":"0800-1700,0800-1700,0900-1700,0800-1700,0800-1700,n,n","phone":"(800)777-0133","address":"825 East St, Suite 306, Woodland, CA 95776","latitude":"38.669155","longitude":"-121.764585","nrby1":598,"nrby2":501,"nrby3":588,"nrby4":625,"nrby5":0,"cDLID":true,"cDLPC":false,"cVR":true,"cCDL":false,"cMDT":false,"cQueue":true,"cSST":false},"562":{"name":"Yuba City","number":562,"region":"1","officeHours":"0800-1700,0800-1700,0900-1700,0800-1700,0800-1700,n,n","phone":"(800)777-0133","address":"1570 Poole Boulevard, Yuba City, CA 95993","latitude":"39.143900","longitude":"-121.643300","nrby1":541,"nrby2":520,"nrby3":673,"nrby4":543,"nrby5":0,"cDLID":true,"cDLPC":false,"cVR":true,"cCDL":true,"cMDT":false,"cQueue":true,"cSST":true},"563":{"name":"Santa Maria","number":563,"region":"5","officeHours":"0800-1700,0800-1700,0900-1700,0800-1700,0800-1700,n,n","phone":"(800)777-0133","address":"523 S. McClelland Street, Santa Maria, CA 93454","latitude":"34.947500","longitude":"-120.434700","nrby1":692,"nrby2":547,"nrby3":589,"nrby4":670,"nrby5":549,"cDLID":true,"cDLPC":false,"cVR":true,"cCDL":false,"cMDT":false,"cQueue":true,"cSST":false},"564":{"name":"Colusa","number":564,"region":"1","officeHours":"0800-1700,0800-1700,0900-1700,0800-1700,0800-1700,n,n","phone":"(800)777-0133","address":"1025 Bridge St. STE B, Colusa, CA 95932","latitude":"39.203900","longitude":"-122.004400","nrby1":0,"nrby2":0,"nrby3":0,"nrby4":0,"nrby5":0,"cDLID":true,"cDLPC":false,"cVR":true,"cCDL":false,"cMDT":false,"cQueue":false,"cSST":false,"disclaimers":[{"id":22,"section":"OfficeHours","order":0,"english":"This office is closed 12:00 Noon through 1:15 PM daily","spanish":"Diariamente, esta oficina está cerrada desde las 12:00 PM del mediodía hasta la 1:15 PM de la tarde"}]},"565":{"name":"Hanford","number":565,"region":"4","officeHours":"0800-1700,0800-1700,0900-1700,0800-1700,0800-1700,n,n","phone":"(800)777-0133","address":"701 W. Hanford Armona Road (corner of W. Armona), Hanford, CA 93230","latitude":"36.313400","longitude":"-119.644400","nrby1":559,"nrby2":594,"nrby3":633,"nrby4":505,"nrby5":0,"cDLID":true,"cDLPC":false,"cVR":true,"cCDL":false,"cMDT":false,"cQueue":true,"cSST":true},"566":{"name":"Mariposa","number":566,"region":"4","officeHours":"0800-1700,0800-1700,0900-1700,0800-1700,0800-1700,n,n","phone":"(800)777-0133","address":"5264 Highway 49-North, Mariposa, CA 95338","latitude":"37.494628","longitude":"-119.968383","nrby1":0,"nrby2":0,"nrby3":0,"nrby4":0,"nrby5":0,"cDLID":true,"cDLPC":false,"cVR":true,"cCDL":false,"cMDT":false,"cQueue":false,"cSST":false},"567":{"name":"Seaside","number":567,"region":"2","officeHours":"0800-1700,0800-1700,0900-1700,0800-1700,0800-1700,n,n","phone":"(800)777-0133","address":"1180 Canyon Del Rey Road, Seaside, CA 93955","latitude":"36.6033","longitude":"-121.8542","nrby1":539,"nrby2":583,"nrby3":550,"nrby4":623,"nrby5":0,"cDLID":true,"cDLPC":false,"cVR":true,"cCDL":false,"cMDT":false,"cQueue":true,"cSST":false},"568":{"name":"San Andreas","number":568,"region":"3","officeHours":"0800-1700,0800-1700,0900-1700,0800-1700,0800-1700,n,n","phone":"(800)777-0133","address":"745 Mountain Ranch Rd, San Andreas, CA 95249","latitude":"38.191088","longitude":"-120.671187","nrby1":521,"nrby2":569,"nrby3":622,"nrby4":517,"nrby5":525,"cDLID":true,"cDLPC":false,"cVR":true,"cCDL":false,"cMDT":false,"cQueue":false,"cSST":false},"569":{"name":"Sonora","number":569,"region":"3","officeHours":"0800-1700,0800-1700,0900-1700,0800-1700,0800-1700,n,n","phone":"(800)777-0133","address":"885 Morning Star Drive, Sonora, CA 95370","latitude":"37.9844","longitude":"-120.3702","nrby1":557,"nrby2":658,"nrby3":622,"nrby4":649,"nrby5":0,"cDLID":true,"cDLPC":false,"cVR":true,"cCDL":false,"cMDT":false,"cQueue":true,"cSST":false},"570":{"name":"Auburn","number":570,"region":"1","officeHours":"0800-1700,0800-1700,0900-1700,0800-1700,0800-1700,n,n","phone":"(800)777-0133","address":"11722 Enterprise Dr, Auburn, CA 95603","latitude":"38.907416","longitude":"-121.083930","nrby1":673,"nrby2":543,"nrby3":655,"nrby4":525,"nrby5":541,"cDLID":true,"cDLPC":false,"cVR":true,"cCDL":false,"cMDT":false,"cQueue":true,"cSST":false},"571":{"name":"Willows","number":571,"region":"1","officeHours":"0800-1700,0800-1700,0900-1700,0800-1700,0800-1700,n,n","phone":"(800)777-0133","address":"815 N. Humboldt Avenue, Willows, CA 95988","latitude":"39.529404","longitude":"-122.212047","nrby1":0,"nrby2":0,"nrby3":0,"nrby4":0,"nrby5":0,"cDLID":true,"cDLPC":false,"cVR":true,"cCDL":false,"cMDT":false,"cQueue":false,"cSST":false},"572":{"name":"Weaverville","number":572,"region":"1","officeHours":"0800-1700,0800-1700,0900-1700,0800-1700,0800-1700,n,n","phone":"(800)777-0133","address":"1511 Main Street, Weaverville, CA 96093","latitude":"40.725600","longitude":"-122.933100","nrby1":0,"nrby2":0,"nrby3":0,"nrby4":0,"nrby5":0,"cDLID":true,"cDLPC":false,"cVR":true,"cCDL":false,"cMDT":false,"cQueue":false,"cSST":false,"disclaimers":[{"id":93,"section":"OfficeHours","order":0,"english":"The Weaverville office is closed daily from 12:00-1:15 p.m. for lunch.","spanish":"Esta oficina cierra a diario de las 12:00 p.m. a la 1:15 p.m."}]},"573":{"name":"Porterville","number":573,"region":"4","officeHours":"0800-1700,0800-1700,0900-1700,0800-1700,0800-1700,n,n","phone":"(800)777-0133","address":"329 E. Olive Avenue, Porterville, CA 93257","latitude":"36.063400","longitude":"-119.009400","nrby1":594,"nrby2":615,"nrby3":559,"nrby4":565,"nrby5":0,"cDLID":true,"cDLPC":false,"cVR":true,"cCDL":false,"cMDT":false,"cQueue":true,"cSST":true},"574":{"name":"Paso Robles","number":574,"region":"5","officeHours":"0800-1700,0800-1700,0900-1700,0800-1700,0800-1700,n,n","phone":"(800)777-0133","address":"841 Park Street, Paso Robles, CA 93446","latitude":"35.6233","longitude":"-120.6898","nrby1":547,"nrby2":563,"nrby3":0,"nrby4":0,"nrby5":0,"cDLID":true,"cDLPC":false,"cVR":true,"cCDL":false,"cMDT":false,"cQueue":true,"cSST":false},"575":{"name":"Taft","number":575,"region":"4","officeHours":"0800-1700,0800-1700,0900-1700,0800-1700,0800-1700,n,n","phone":"(800)777-0133","address":"165 Center Street, Taft, CA 93268","latitude":"35.139321","longitude":"-119.453756","nrby1":0,"nrby2":0,"nrby3":0,"nrby4":0,"nrby5":0,"cDLID":true,"cDLPC":false,"cVR":true,"cCDL":false,"cMDT":false,"cQueue":false,"cSST":false},"576":{"name":"Bell Gardens","number":576,"region":"6","officeHours":"0800-1700,0800-1700,0900-1700,0800-1700,0800-1700,n,n","phone":"(800)777-0133","address":"6801 South Garfield, Bell Gardens, CA 90201","latitude":"33.970100","longitude":"-118.149100","nrby1":511,"nrby2":591,"nrby3":581,"nrby4":606,"nrby5":0,"cDLID":true,"cDLPC":false,"cVR":true,"cCDL":false,"cMDT":false,"cQueue":true,"cSST":true},"577":{"name":"Ridgecrest","number":577,"region":"4","officeHours":"0800-1700,0800-1700,0900-1700,0800-1700,0800-1700,n,n","phone":"(800)777-0133","address":"540A Perdew Avenue, Ridgecrest, CA 93555","latitude":"35.648927","longitude":"-117.679474","nrby1":0,"nrby2":0,"nrby3":0,"nrby4":0,"nrby5":0,"cDLID":true,"cDLPC":false,"cVR":true,"cCDL":false,"cMDT":false,"cQueue":false,"cSST":false},"578":{"name":"Indio","number":578,"region":"8","officeHours":"0800-1700,0800-1700,0900-1700,0800-1700,0800-1700,n,n","phone":"(800)777-0133","address":"44480 Jackson St, Indio, CA 92201","latitude":"33.726220","longitude":"-116.215742","nrby1":683,"nrby2":659,"nrby3":638,"nrby4":641,"nrby5":635,"cDLID":true,"cDLPC":false,"cVR":true,"cCDL":false,"cMDT":false,"cQueue":true,"cSST":false},"579":{"name":"Hayward","number":579,"region":"2","officeHours":"0800-1700,0800-1700,0900-1700,0800-1700,0800-1700,n,n","phone":"(800)777-0133","address":"150 Jackson Street, Hayward, CA 94544","latitude":"37.6595","longitude":"-122.0878","nrby1":644,"nrby2":604,"nrby3":593,"nrby4":548,"nrby5":0,"cDLID":true,"cDLPC":false,"cVR":true,"cCDL":false,"cMDT":false,"cQueue":true,"cSST":false},"580":{"name":"Clovis","number":580,"region":"4","officeHours":"0800-1700,0800-1700,0900-1700,0800-1700,0800-1700,n,n","phone":"(800)777-0133","address":"2103 Shaw Avenue, Clovis, CA 93611","latitude":"36.809500","longitude":"-119.676600","nrby1":646,"nrby2":505,"nrby3":633,"nrby4":533,"nrby5":0,"cDLID":true,"cDLPC":false,"cVR":true,"cCDL":false,"cMDT":false,"cQueue":true,"cSST":true},"581":{"name":"Compton","number":581,"region":"6","officeHours":"0800-1700,0800-1700,0900-1700,0800-1700,0800-1700,n,n","phone":"(800)777-0133","address":"2111 South Santa Fe Avenue, Compton, CA 90221","latitude":"33.876500","longitude":"-118.215400","nrby1":606,"nrby2":608,"nrby3":576,"nrby4":619,"nrby5":0,"cDLID":true,"cDLPC":false,"cVR":true,"cCDL":false,"cMDT":false,"cQueue":true,"cSST":true},"582":{"name":"Barstow","number":582,"region":"7","officeHours":"0800-1700,0800-1700,0900-1700,0800-1700,0800-1700,n,n","phone":"(800)777-0133","address":"528 E Virginia Way, Barstow, CA 92311","latitude":"34.888119","longitude":"-117.022119","nrby1":629,"nrby2":512,"nrby3":626,"nrby4":699,"nrby5":657,"cDLID":true,"cDLPC":false,"cVR":true,"cCDL":false,"cMDT":false,"cQueue":false,"cSST":false},"583":{"name":"Watsonville","number":583,"region":"2","officeHours":"0800-1700,0800-1700,0900-1700,0800-1700,0800-1700,n,n","phone":"(800)777-0133","address":"90 Alta Vista Avenue, Watsonville, CA 95076","latitude":"36.9270","longitude":"-121.7682","nrby1":550,"nrby2":623,"nrby3":546,"nrby4":539,"nrby5":0,"cDLID":true,"cDLPC":false,"cVR":true,"cCDL":false,"cMDT":false,"cQueue":true,"cSST":false},"584":{"name":"Needles","number":584,"region":"7","officeHours":"0800-1700,0800-1700,0900-1700,0800-1700,0800-1700,n,n","phone":"(800)777-0133","address":"1040 E Broadway St, Needles, CA 92363","latitude":"34.825497","longitude":"-114.596291","nrby1":0,"nrby2":0,"nrby3":0,"nrby4":0,"nrby5":0,"cDLID":true,"cDLPC":false,"cVR":true,"cCDL":false,"cMDT":false,"cQueue":false,"cSST":false},"585":{"name":"Bishop","number":585,"region":"4","officeHours":"0800-1700,0800-1700,0900-1700,0800-1700,0800-1700,n,n","phone":"(800)777-0133","address":"1115 West Line Street, Bishop, CA 93514","latitude":"37.3613","longitude":"-118.4078","nrby1":633,"nrby2":580,"nrby3":646,"nrby4":559,"nrby5":566,"cDLID":true,"cDLPC":false,"cVR":true,"cCDL":false,"cMDT":false,"cQueue":false,"cSST":false},"586":{"name":"Norco","number":586,"region":"7","officeHours":"0800-1700,0800-1700,0900-1700,0800-1700,0800-1700,n,n","phone":"(800)777-0133","address":"3201 Horseless Carriage Drive, Norco, CA 92860","latitude":"33.9283","longitude":"-117.5614","nrby1":545,"nrby2":612,"nrby3":657,"nrby4":532,"nrby5":0,"cDLID":true,"cDLPC":false,"cVR":true,"cCDL":false,"cMDT":false,"cQueue":true,"cSST":false},"587":{"name":"Arleta","number":587,"region":"5","officeHours":"0800-1700,0800-1700,0900-1700,0800-1700,0800-1700,n,n","phone":"(800)777-0133","address":"14400 Van Nuys Blvd, Arleta, CA 91331","latitude":"34.249224","longitude":"-118.445215","nrby1":693,"nrby2":515,"nrby3":637,"nrby4":662,"nrby5":510,"cDLID":false,"cDLPC":false,"cVR":true,"cCDL":true,"cMDT":true,"cQueue":true,"cSST":true},"588":{"name":"Vacaville","number":588,"region":"3","officeHours":"0800-1700,0800-1700,0900-1700,0800-1700,0800-1700,n,n","phone":"(800)777-0133","address":"621 Orange Drive, Vacaville, CA 95687","latitude":"38.3784","longitude":"-121.9448","nrby1":621,"nrby2":598,"nrby3":561,"nrby4":554,"nrby5":0,"cDLID":true,"cDLPC":false,"cVR":true,"cCDL":false,"cMDT":false,"cQueue":true,"cSST":false},"589":{"name":"Lompoc","number":589,"region":"5","officeHours":"0800-1700,0800-1700,0900-1700,0800-1700,0800-1700,n,n","phone":"(800)777-0133","address":"209 W. Pine Ave., Lompoc, CA 93436","latitude":"34.650800","longitude":"-120.459600","nrby1":692,"nrby2":563,"nrby3":547,"nrby4":670,"nrby5":549,"cDLID":false,"cDLPC":false,"cVR":true,"cCDL":false,"cMDT":false,"cQueue":false,"cSST":false},"590":{"name":"Fort Bragg","number":590,"region":"1","officeHours":"0800-1700,0800-1700,0900-1700,0800-1700,0800-1700,n,n","phone":"(800)777-0133","address":"410 S. Franklin Street, Fort Bragg, CA 95437","latitude":"39.4379","longitude":"-123.8042","nrby1":535,"nrby2":627,"nrby3":530,"nrby4":571,"nrby5":555,"cDLID":true,"cDLPC":false,"cVR":true,"cCDL":false,"cMDT":false,"cQueue":false,"cSST":false},"591":{"name":"Whittier","number":591,"region":"7","officeHours":"0800-1700,0800-1700,0900-1700,0800-1700,0800-1700,n,n","phone":"(800)777-0133","address":"9338 S. Painter Avenue, Whittier, CA 90605","latitude":"33.952800","longitude":"-118.043200","nrby1":698,"nrby2":576,"nrby3":511,"nrby4":607,"nrby5":606,"cDLID":true,"cDLPC":false,"cVR":true,"cCDL":false,"cMDT":false,"cQueue":true,"cSST":true},"592":{"name":"Pittsburg","number":592,"region":"3","officeHours":"0800-1700,0800-1700,0900-1700,0800-1700,0800-1700,n,n","phone":"(800)777-0133","address":"1399 Buchanan Road, Pittsburg, CA 94565","latitude":"37.9988","longitude":"-121.8726","nrby1":523,"nrby2":624,"nrby3":504,"nrby4":556,"nrby5":0,"cDLID":true,"cDLPC":false,"cVR":true,"cCDL":false,"cMDT":false,"cQueue":true,"cSST":false},"593":{"name":"San Mateo","number":593,"region":"2","officeHours":"0800-1700,0800-1700,0900-1700,0800-1700,0800-1700,n,n","phone":"(800)777-0133","address":"425 N. Amphlett Boulevard, San Mateo, CA 94401","latitude":"37.5792","longitude":"-122.3235","nrby1":548,"nrby2":599,"nrby3":579,"nrby4":503,"nrby5":0,"cDLID":true,"cDLPC":false,"cVR":true,"cCDL":false,"cMDT":false,"cQueue":true,"cSST":false},"594":{"name":"Tulare","number":594,"region":"4","officeHours":"0800-1700,0800-1700,0900-1700,0800-1700,0800-1700,n,n","phone":"(800)777-0133","address":"274 E Cross Avenue, Tulare, CA 93274","latitude":"36.2134","longitude":"-119.3464","nrby1":559,"nrby2":565,"nrby3":573,"nrby4":615,"nrby5":0,"cDLID":true,"cDLPC":false,"cVR":true,"cCDL":false,"cMDT":false,"cQueue":true,"cSST":false},"595":{"name":"Lancaster","number":595,"region":"4","officeHours":"0800-1700,0800-1700,0900-1700,0800-1700,0800-1700,n,n","phone":"(800)777-0133","address":"1110 W. Avenue. I, Lancaster, CA 93534","latitude":"34.703600","longitude":"-118.149600","nrby1":690,"nrby2":662,"nrby3":587,"nrby4":510,"nrby5":509,"cDLID":true,"cDLPC":false,"cVR":true,"cCDL":true,"cMDT":false,"cQueue":true,"cSST":true},"596":{"name":"Oceanside","number":596,"region":"8","officeHours":"0800-1700,0800-1700,0900-1700,0800-1700,0800-1700,n,n","phone":"(800)777-0133","address":"4005 Plaza Drive, Oceanside, CA 92056","latitude":"33.183400","longitude":"-117.289000","nrby1":689,"nrby2":676,"nrby3":672,"nrby4":519,"nrby5":648,"cDLID":true,"cDLPC":false,"cVR":true,"cCDL":false,"cMDT":false,"cQueue":true,"cSST":true},"597":{"name":"Brawley","number":597,"region":"8","officeHours":"0800-1700,0800-1700,0900-1700,0800-1700,0800-1700,n,n","phone":"(800)777-0133","address":"1175 East Main Street, Brawley, CA 92227","latitude":"32.978700","longitude":"-115.522700","nrby1":527,"nrby2":578,"nrby3":659,"nrby4":669,"nrby5":0,"cDLID":true,"cDLPC":false,"cVR":true,"cCDL":false,"cMDT":false,"cQueue":true,"cSST":false},"598":{"name":"Davis","number":598,"region":"3","officeHours":"0800-1700,0800-1700,0900-1700,0800-1700,0800-1700,n,n","phone":"(800)777-0133","address":"505 Pole Line Road, Davis, CA 95616","latitude":"38.5492","longitude":"-121.7267","nrby1":561,"nrby2":588,"nrby3":501,"nrby4":621,"nrby5":0,"cDLID":true,"cDLPC":false,"cVR":true,"cCDL":false,"cMDT":false,"cQueue":true,"cSST":false},"599":{"name":"Daly City","number":599,"region":"1","officeHours":"0800-1700,0800-1700,0900-1700,0800-1700,0800-1700,n,n","phone":"(800)777-0133","address":"1500 Sullivan Avenue, Daly City, CA 94015","latitude":"37.689000","longitude":"-122.472800","nrby1":503,"nrby2":593,"nrby3":504,"nrby4":548,"nrby5":0,"cDLID":true,"cDLPC":false,"cVR":true,"cCDL":false,"cMDT":false,"cQueue":true,"cSST":false},"601":{"name":"Paradise","number":601,"region":"1","officeHours":"0800-1700,0800-1700,0900-1700,0800-1700,0800-1700,n,n","phone":"(800)777-0133","address":"5921 Clark Road, Paradise, CA 95967","latitude":"39.757894","longitude":"-121.60697","nrby1":0,"nrby2":0,"nrby3":0,"nrby4":0,"nrby5":0,"cDLID":true,"cDLPC":false,"cVR":true,"cCDL":false,"cMDT":false,"cQueue":false,"cSST":false},"602":{"name":"Sacramento South","number":602,"region":"3","officeHours":"0800-1700,0800-1700,0900-1700,0800-1700,0800-1700,n,n","phone":"(800)777-0133","address":"7775 La Mancha Way, Sacramento, CA 95823","latitude":"38.476400","longitude":"-121.426300","nrby1":501,"nrby2":625,"nrby3":598,"nrby4":622,"nrby5":0,"cDLID":true,"cDLPC":false,"cVR":true,"cCDL":false,"cMDT":true,"cQueue":true,"cSST":true},"603":{"name":"Coalinga","number":603,"region":"4","officeHours":"0800-1700,0800-1700,0900-1700,0800-1700,0800-1700,n,n","phone":"(800)777-0133","address":"406 East Elm Avenue, Coalinga, CA 93210","latitude":"36.1430","longitude":"-120.3572","nrby1":574,"nrby2":565,"nrby3":822,"nrby4":647,"nrby5":215,"cDLID":true,"cDLPC":false,"cVR":true,"cCDL":false,"cMDT":false,"cQueue":false,"cSST":false},"604":{"name":"Oakland Coliseum","number":604,"region":"2","officeHours":"0800-1700,0800-1700,0900-1700,0800-1700,0800-1700,n,n","phone":"(800)777-0133","address":"501 85th Ave, Oakland, CA 94621","latitude":"37.739673","longitude":"-122.193223","nrby1":504,"nrby2":579,"nrby3":593,"nrby4":624,"nrby5":503,"cDLID":true,"cDLPC":false,"cVR":true,"cCDL":true,"cMDT":false,"cQueue":true,"cSST":true},"605":{"name":"Laguna Hills","number":605,"region":"8","officeHours":"0800-1700,0800-1700,0900-1700,0800-1700,0800-1700,n,n","phone":"(800)777-0133","address":"23535 Moulton Parkway, Laguna Hills, CA 92653","latitude":"33.6209","longitude":"-117.7316","nrby1":628,"nrby2":648,"nrby3":542,"nrby4":618,"nrby5":0,"cDLID":true,"cDLPC":false,"cVR":true,"cCDL":false,"cMDT":false,"cQueue":true,"cSST":false},"606":{"name":"Bellflower","number":606,"region":"6","officeHours":"0800-1700,0800-1700,0900-1700,0800-1700,0800-1700,n,n","phone":"(800)777-0133","address":"9520 East Artesia Blvd., Bellflower, CA 90706","latitude":"33.874700","longitude":"-118.130900","nrby1":698,"nrby2":581,"nrby3":607,"nrby4":576,"nrby5":507,"cDLID":true,"cDLPC":false,"cVR":true,"cCDL":false,"cMDT":false,"cQueue":true,"cSST":false},"607":{"name":"Fullerton","number":607,"region":"7","officeHours":"0800-1700,0800-1700,0900-1700,0800-1700,0800-1700,n,n","phone":"(800)777-0133","address":"909 W. Valencia Drive, Fullerton, CA 92832","latitude":"33.866600","longitude":"-117.939900","nrby1":698,"nrby2":606,"nrby3":542,"nrby4":591,"nrby5":611,"cDLID":true,"cDLPC":false,"cVR":true,"cCDL":true,"cMDT":false,"cQueue":true,"cSST":false},"608":{"name":"Torrance","number":608,"region":"6","officeHours":"0800-1700,0800-1700,0900-1700,0800-1700,0800-1700,n,n","phone":"(800)777-0133","address":"1785 W. 220th Street, Torrance, CA 90501","latitude":"33.8279","longitude":"-118.3113","nrby1":619,"nrby2":581,"nrby3":609,"nrby4":507,"nrby5":0,"cDLID":true,"cDLPC":false,"cVR":true,"cCDL":true,"cMDT":false,"cQueue":true,"cSST":true},"609":{"name":"Hawthorne","number":609,"region":"6","officeHours":"0800-1700,0800-1700,0900-1700,0800-1700,0800-1700,n,n","phone":"(800)777-0133","address":"3700 W. El Segundo Boulevard, Hawthorne, CA 90250","latitude":"33.916400","longitude":"-118.337300","nrby1":610,"nrby2":608,"nrby3":502,"nrby4":581,"nrby5":0,"cDLID":true,"cDLPC":false,"cVR":true,"cCDL":false,"cMDT":false,"cQueue":true,"cSST":true},"610":{"name":"Inglewood","number":610,"region":"6","officeHours":"0800-1700,0800-1700,0900-1700,0800-1700,0800-1700,n,n","phone":"(800)777-0133","address":"621 N La Brea Ave, Inglewood, CA 90302","latitude":"33.970142","longitude":"-118.357099","nrby1":609,"nrby2":514,"nrby3":502,"nrby4":616,"nrby5":508,"cDLID":true,"cDLPC":false,"cVR":true,"cCDL":false,"cMDT":false,"cQueue":true,"cSST":true},"611":{"name":"Westminster","number":611,"region":"7","officeHours":"0800-1700,0800-1700,0900-1700,0800-1700,0800-1700,n,n","phone":"(800)777-0133","address":"13700 Hoover Street, Westminster, CA 92683","latitude":"33.764300","longitude":"-117.998200","nrby1":698,"nrby2":507,"nrby3":542,"nrby4":628,"nrby5":607,"cDLID":false,"cDLPC":false,"cVR":true,"cCDL":false,"cMDT":false,"cQueue":true,"cSST":true},"612":{"name":"Rancho Cucamonga","number":612,"region":"7","officeHours":"0800-1700,0800-1700,0900-1700,0800-1700,0800-1700,n,n","phone":"(800)777-0133","address":"8629 Hellman Avenue, Rancho Cucamonga, CA 91730","latitude":"34.096900","longitude":"-117.601600","nrby1":532,"nrby2":657,"nrby3":586,"nrby4":512,"nrby5":0,"cDLID":true,"cDLPC":false,"cVR":true,"cCDL":false,"cMDT":false,"cQueue":true,"cSST":false},"613":{"name":"Chula Vista","number":613,"region":"8","officeHours":"0800-1700,0800-1700,0900-1700,0800-1700,0800-1700,n,n","phone":"(800)777-0133","address":"30 N Glover Avenue, Chula Vista, CA 91910","latitude":"32.652500","longitude":"-117.086400","nrby1":506,"nrby2":677,"nrby3":519,"nrby4":669,"nrby5":0,"cDLID":true,"cDLPC":false,"cVR":true,"cCDL":false,"cMDT":false,"cQueue":true,"cSST":true},"614":{"name":"Rancho San Diego IBC","number":614,"region":"8","officeHours":"0700-1600,0700-1600,0800-1600,0700-1600,0700-1600,n,n","phone":"(619)441-2342","address":"1901 Jamacha Road, El Cajon, CA 92019","latitude":"32.756415","longitude":"-116.927344","nrby1":0,"nrby2":0,"nrby3":0,"nrby4":0,"nrby5":0,"cDLID":false,"cDLPC":false,"cVR":false,"cCDL":true,"cMDT":false,"cQueue":false,"cSST":false},"615":{"name":"Delano","number":615,"region":"4","officeHours":"0800-1700,0800-1700,0900-1700,0800-1700,0800-1700,n,n","phone":"(800)777-0133","address":"631 Jefferson Street, Delano, CA 93215","latitude":"35.7651","longitude":"-119.2437","nrby1":660,"nrby2":594,"nrby3":529,"nrby4":559,"nrby5":0,"cDLID":true,"cDLPC":false,"cVR":true,"cCDL":false,"cMDT":false,"cQueue":true,"cSST":false},"616":{"name":"Santa Monica","number":616,"region":"5","officeHours":"0800-1700,0800-1700,0900-1700,0800-1700,0800-1700,n,n","phone":"(800)777-0133","address":"2235 Colorado Avenue, Santa Monica, CA 90404","latitude":"34.028000","longitude":"-118.474500","nrby1":514,"nrby2":515,"nrby3":652,"nrby4":508,"nrby5":0,"cDLID":true,"cDLPC":false,"cVR":true,"cCDL":false,"cMDT":false,"cQueue":true,"cSST":false},"617":{"name":"Lincoln Park","number":617,"region":"6","officeHours":"0800-1700,0800-1700,0900-1700,0800-1700,0800-1700,n,n","phone":"(800)777-0133","address":"3529 N. Mission Road, Los Angeles, CA 90031","latitude":"34.0673","longitude":"-118.2035","nrby1":510,"nrby2":502,"nrby3":509,"nrby4":511,"nrby5":0,"cDLID":true,"cDLPC":false,"cVR":true,"cCDL":false,"cMDT":false,"cQueue":true,"cSST":true},"618":{"name":"West Covina","number":618,"region":"6","officeHours":"0800-1700,0800-1700,0900-1700,0800-1700,0800-1700,n,n","phone":"(800)777-0133","address":"800 So. Glendora Avenue, West Covina, CA 91790","latitude":"34.061000","longitude":"-117.931600","nrby1":532,"nrby2":511,"nrby3":509,"nrby4":612,"nrby5":0,"cDLID":true,"cDLPC":false,"cVR":true,"cCDL":false,"cMDT":false,"cQueue":true,"cSST":false},"619":{"name":"San Pedro","number":619,"region":"6","officeHours":"0800-1700,0800-1700,0900-1700,0800-1700,0800-1700,n,n","phone":"(800)777-0133","address":"1511 N. Gaffey Street, San Pedro, CA 90731","latitude":"33.7588","longitude":"-118.2926","nrby1":608,"nrby2":581,"nrby3":507,"nrby4":609,"nrby5":0,"cDLID":true,"cDLPC":false,"cVR":true,"cCDL":false,"cMDT":false,"cQueue":true,"cSST":false},"621":{"name":"Fairfield","number":621,"region":"3","officeHours":"0800-1700,0800-1700,0900-1700,0800-1700,0800-1700,n,n","phone":"(800)777-0133","address":"160 Serrano Drive, Fairfield, CA 94533","latitude":"38.2467","longitude":"-122.0731","nrby1":554,"nrby2":588,"nrby3":540,"nrby4":523,"nrby5":0,"cDLID":true,"cDLPC":false,"cVR":true,"cCDL":false,"cMDT":false,"cQueue":true,"cSST":false},"622":{"name":"Lodi","number":622,"region":"3","officeHours":"0800-1700,0800-1700,0900-1700,0800-1700,0800-1700,n,n","phone":"(800)777-0133","address":"1222 Pixley Parkway, Lodi, CA 95240","latitude":"38.117900","longitude":"-121.252200","nrby1":517,"nrby2":602,"nrby3":658,"nrby4":501,"nrby5":0,"cDLID":true,"cDLPC":false,"cVR":true,"cCDL":false,"cMDT":false,"cQueue":true,"cSST":true},"623":{"name":"Gilroy","number":623,"region":"2","officeHours":"0800-1700,0800-1700,0900-1700,0800-1700,0800-1700,n,n","phone":"(800)777-0133","address":"6984 Chestnut Street Suite A, Gilroy, CA 95020","latitude":"37.001700","longitude":"-121.560600","nrby1":546,"nrby2":668,"nrby3":583,"nrby4":516,"nrby5":0,"cDLID":true,"cDLPC":false,"cVR":true,"cCDL":false,"cMDT":false,"cQueue":true,"cSST":false,"disclaimers":[{"id":88,"section":"BasicInfo","order":0,"english":"Effective Wednesday, April 1, 2015, the Gilroy field office's address will change from 6984 Chestnut Street to 6984 Automall Parkway.","spanish":"Effective Wednesday, April 1, 2015, the Gilroy field office's address will change from 6984 Chestnut Street to 6984 Automall Parkway."}]},"624":{"name":"Walnut Creek","number":624,"region":"3","officeHours":"0800-1700,0800-1700,0900-1700,0800-1700,0800-1700,n,n","phone":"(800)777-0133","address":"1910 N. Broadway, Walnut Creek, CA 94596","latitude":"37.9053","longitude":"-122.0611","nrby1":523,"nrby2":592,"nrby3":504,"nrby4":631,"nrby5":0,"cDLID":true,"cDLPC":false,"cVR":true,"cCDL":false,"cMDT":false,"cQueue":true,"cSST":false},"625":{"name":"Carmichael","number":625,"region":"3","officeHours":"0800-1700,0800-1700,0900-1700,0800-1700,0800-1700,n,n","phone":"(800)777-0133","address":"5209 North Ave, Carmichael, CA 95608","latitude":"38.625159","longitude":"-121.343288","nrby1":501,"nrby2":655,"nrby3":543,"nrby4":602,"nrby5":697,"cDLID":true,"cDLPC":false,"cVR":true,"cCDL":false,"cMDT":false,"cQueue":true,"cSST":true},"626":{"name":"Redlands","number":626,"region":"7","officeHours":"0800-1700,0800-1700,0900-1700,0800-1700,0800-1700,n,n","phone":"(800)777-0133","address":"1659 W Lugonia Avenue, Redlands, CA 92374","latitude":"34.0703","longitude":"-117.2111","nrby1":512,"nrby2":657,"nrby3":545,"nrby4":512,"nrby5":0,"cDLID":true,"cDLPC":false,"cVR":true,"cCDL":false,"cMDT":false,"cQueue":true,"cSST":false},"627":{"name":"Garberville","number":627,"region":"1","officeHours":"0900-1700,0900-1700,0900-1700,0900-1700,0900-1700,n,n","phone":"(800)777-0133","address":"1180 Evergreen Rd, Redway, CA 95560","latitude":"40.120878","longitude":"-123.800749","nrby1":590,"nrby2":526,"nrby3":572,"nrby4":535,"nrby5":551,"cDLID":true,"cDLPC":false,"cVR":true,"cCDL":false,"cMDT":false,"cQueue":false,"cSST":false,"disclaimers":[{"id":23,"section":"OfficeHours","order":0,"english":"This office is closed 12:00 Noon through 1:15 PM daily","spanish":"Diariamente, esta oficina está cerrada desde las 12:00 PM del mediodía hasta la 1:15 PM de la tarde"}]},"628":{"name":"Costa Mesa","number":628,"region":"8","officeHours":"0800-1700,0800-1700,0900-1700,0800-1700,0800-1700,n,n","phone":"(800)777-0133","address":"650 W. 19th Street, Costa Mesa, CA 92627","latitude":"33.6435","longitude":"-117.9259","nrby1":542,"nrby2":611,"nrby3":605,"nrby4":607,"nrby5":0,"cDLID":true,"cDLPC":false,"cVR":true,"cCDL":false,"cMDT":false,"cQueue":true,"cSST":true},"629":{"name":"Victorville","number":629,"region":"7","officeHours":"0800-1700,0800-1700,0900-1700,0800-1700,0800-1700,n,n","phone":"(800)777-0133","address":"14855 Corta Drive, Victorville, CA 92395","latitude":"34.520500","longitude":"-117.305500","nrby1":512,"nrby2":612,"nrby3":626,"nrby4":657,"nrby5":0,"cDLID":true,"cDLPC":false,"cVR":true,"cCDL":false,"cMDT":false,"cQueue":true,"cSST":false},"630":{"name":"Santa Paula","number":630,"region":"5","officeHours":"0800-1700,0800-1700,0900-1700,0800-1700,0800-1700,n,n","phone":"(800)777-0133","address":"250 W. Harvard Boulevard A, Santa Paula, CA 93060","latitude":"34.3445","longitude":"-119.0756","nrby1":560,"nrby2":636,"nrby3":680,"nrby4":663,"nrby5":0,"cDLID":true,"cDLPC":false,"cVR":true,"cCDL":false,"cMDT":false,"cQueue":true,"cSST":false},"631":{"name":"Pleasanton","number":631,"region":"2","officeHours":"0800-1700,0800-1700,0900-1700,0800-1700,0800-1700,n,n","phone":"(800)777-0133","address":"6300 W Las Positas Blvd, Pleasanton, CA 94588","latitude":"37.680167","longitude":"-121.905706","nrby1":579,"nrby2":644,"nrby3":604,"nrby4":624,"nrby5":548,"cDLID":true,"cDLPC":false,"cVR":true,"cCDL":false,"cMDT":false,"cQueue":true,"cSST":false},"632":{"name":"Santa Clara","number":632,"region":"2","officeHours":"0800-1700,0800-1700,0900-1700,0800-1700,0800-1700,n,n","phone":"(800)777-0133","address":"3665 Flora Vista Ave, Santa Clara, CA 95051","latitude":"37.350082","longitude":"-121.993984","nrby1":645,"nrby2":516,"nrby3":640,"nrby4":668,"nrby5":548,"cDLID":true,"cDLPC":false,"cVR":true,"cCDL":false,"cMDT":false,"cQueue":true,"cSST":false},"633":{"name":"Reedley","number":633,"region":"4","officeHours":"0800-1700,0800-1700,0900-1700,0800-1700,0800-1700,n,n","phone":"(800)777-0133","address":"558 E. Dinuba Avenue, Reedley, CA 93654","latitude":"36.5901","longitude":"-119.4434","nrby1":580,"nrby2":559,"nrby3":646,"nrby4":505,"nrby5":0,"cDLID":true,"cDLPC":false,"cVR":true,"cCDL":false,"cMDT":false,"cQueue":true,"cSST":false},"634":{"name":"Petaluma","number":634,"region":"1","officeHours":"0800-1700,0800-1700,0900-1700,0800-1700,0800-1700,n,n","phone":"(800)777-0133","address":"715 - J Southpoint Boulevard, Petaluma, CA 94954","latitude":"38.2570","longitude":"-122.6453","nrby1":686,"nrby2":555,"nrby3":540,"nrby4":554,"nrby5":0,"cDLID":true,"cDLPC":false,"cVR":true,"cCDL":false,"cMDT":false,"cQueue":true,"cSST":false},"635":{"name":"Hemet","number":635,"region":"8","officeHours":"0800-1700,0800-1700,0900-1700,0800-1700,0800-1700,n,n","phone":"(800)777-0133","address":"1200 S State St, Hemet, CA 92543","latitude":"33.727792","longitude":"-116.970199","nrby1":641,"nrby2":672,"nrby3":656,"nrby4":659,"nrby5":626,"cDLID":true,"cDLPC":false,"cVR":true,"cCDL":false,"cMDT":false,"cQueue":true,"cSST":false},"636":{"name":"Oxnard","number":636,"region":"5","officeHours":"0800-1700,0800-1700,0900-1700,0800-1700,0800-1700,n,n","phone":"(800)777-0133","address":"4050 Saviers Road, Oxnard, CA 93033","latitude":"34.162900","longitude":"-119.177500","nrby1":560,"nrby2":630,"nrby3":663,"nrby4":680,"nrby5":0,"cDLID":true,"cDLPC":false,"cVR":true,"cCDL":false,"cMDT":false,"cQueue":true,"cSST":true},"637":{"name":"Winnetka","number":637,"region":"5","officeHours":"0800-1700,0800-1700,0900-1700,0800-1700,0800-1700,n,n","phone":"(800)777-0133","address":"20725 Sherman Way, Winnetka, CA 91306","latitude":"34.201000","longitude":"-118.584600","nrby1":693,"nrby2":515,"nrby3":587,"nrby4":680,"nrby5":663,"cDLID":true,"cDLPC":false,"cVR":true,"cCDL":false,"cMDT":false,"cQueue":true,"cSST":true},"638":{"name":"Twentynine Palms","number":638,"region":"8","officeHours":"0800-1700,0800-1700,0900-1700,0800-1700,0800-1700,n,n","phone":"(800)777-0133","address":"3668 Adobe Road G-J, Twentynine Palms, CA 92277","latitude":"34.199775","longitude":"-116.054016","nrby1":0,"nrby2":0,"nrby3":0,"nrby4":0,"nrby5":0,"cDLID":true,"cDLPC":false,"cVR":true,"cCDL":false,"cMDT":false,"cQueue":false,"cSST":false},"639":{"name":"Mt Shasta","number":639,"region":"1","officeHours":"0800-1700,0800-1700,0900-1700,0800-1700,0800-1700,n,n","phone":"(800)777-0133","address":"154 Morgan Way, Mt Shasta, CA 96067","latitude":"41.310225","longitude":"-122.31703","nrby1":0,"nrby2":0,"nrby3":0,"nrby4":0,"nrby5":0,"cDLID":true,"cDLPC":false,"cVR":true,"cCDL":false,"cMDT":false,"cQueue":false,"cSST":false},"640":{"name":"Los Gatos","number":640,"region":"2","officeHours":"0800-1700,0800-1700,0900-1700,0800-1700,0800-1700,n,n","phone":"(800)777-0133","address":"600 N. Santa Cruz Avenue, Los Gatos, CA 95030","latitude":"37.234000","longitude":"-121.978100","nrby1":645,"nrby2":632,"nrby3":516,"nrby4":668,"nrby5":550,"cDLID":true,"cDLPC":false,"cVR":true,"cCDL":false,"cMDT":false,"cQueue":true,"cSST":false},"641":{"name":"Banning","number":641,"region":"8","officeHours":"0800-1700,0800-1700,0900-1700,0800-1700,0800-1700,n,n","phone":"(800)777-0133","address":"1034 W. Ramsey Street B, Banning, CA 92220","latitude":"33.9249","longitude":"-116.8879","nrby1":635,"nrby2":626,"nrby3":659,"nrby4":656,"nrby5":699,"cDLID":true,"cDLPC":false,"cVR":true,"cCDL":false,"cMDT":false,"cQueue":true,"cSST":false},"642":{"name":"Tracy","number":642,"region":"3","officeHours":"0800-1700,0800-1700,0900-1700,0800-1700,0800-1700,n,n","phone":"(800)777-0133","address":"2785 Auto Plaza Drive, Tracy, CA 95304","latitude":"37.7622","longitude":"-121.4651","nrby1":658,"nrby2":517,"nrby3":592,"nrby4":557,"nrby5":0,"cDLID":true,"cDLPC":false,"cVR":true,"cCDL":false,"cMDT":false,"cQueue":true,"cSST":false},"643":{"name":"Fall River Mills","number":643,"region":"1","officeHours":"0800-1700,0800-1700,0900-1700,0800-1700,0800-1700,n,n","phone":"(800)777-0133","address":"43467 Hwy 299E, Fall River Mills, CA 96028","latitude":"41.019824","longitude":"-121.427987","nrby1":639,"nrby2":537,"nrby3":551,"nrby4":531,"nrby5":553,"cDLID":true,"cDLPC":false,"cVR":true,"cCDL":false,"cMDT":false,"cQueue":false,"cSST":false,"disclaimers":[{"id":90,"section":"OfficeHours","order":0,"english":"This office is closed 12:00 Noon through 1:15 PM daily","spanish":"Diariamente, esta oficina está cerrada desde las 12:00 PM del mediodía hasta la 1:15 PM de la tarde"}]},"644":{"name":"Fremont","number":644,"region":"2","officeHours":"0800-1700,0800-1700,0900-1700,0800-1700,0800-1700,n,n","phone":"(800)777-0133","address":"4287 Central Avenue, Fremont, CA 94536","latitude":"37.553100","longitude":"-122.007300","nrby1":579,"nrby2":548,"nrby3":631,"nrby4":604,"nrby5":0,"cDLID":true,"cDLPC":false,"cVR":true,"cCDL":true,"cMDT":false,"cQueue":true,"cSST":false},"645":{"name":"San Jose DLPC (DL Only)","number":645,"region":"2","officeHours":"0800-1700,0800-1700,0900-1700,0800-1700,0800-1700,n,n","phone":"(800)777-0133","address":"2222 Senter Rd, San Jose, CA 95112","latitude":"37.311335","longitude":"-121.849985","nrby1":516,"nrby2":668,"nrby3":632,"nrby4":640,"nrby5":644,"cDLID":true,"cDLPC":true,"cVR":false,"cCDL":false,"cMDT":false,"cQueue":true,"cSST":false},"646":{"name":"Fresno North","number":646,"region":"4","officeHours":"0800-1700,0800-1700,0900-1700,0800-1700,0800-1700,n,n","phone":"(800)777-0133","address":"6420 N Blackstone Avenue, Fresno, CA 93710","latitude":"36.831000","longitude":"-119.790100","nrby1":580,"nrby2":505,"nrby3":533,"nrby4":633,"nrby5":0,"cDLID":true,"cDLPC":false,"cVR":true,"cCDL":false,"cMDT":false,"cQueue":true,"cSST":true},"647":{"name":"King City","number":647,"region":"2","officeHours":"0800-1700,0800-1700,0900-1700,0800-1700,0800-1700,n,n","phone":"(800)777-0133","address":"101 E San Antonio Dr, King City, CA 93930","latitude":"36.222399","longitude":"-121.127305","nrby1":603,"nrby2":539,"nrby3":546,"nrby4":574,"nrby5":567,"cDLID":true,"cDLPC":false,"cVR":true,"cCDL":false,"cMDT":false,"cQueue":false,"cSST":false},"648":{"name":"San Clemente","number":648,"region":"8","officeHours":"0800-1700,0800-1700,0900-1700,0800-1700,0800-1700,n,n","phone":"(800)777-0133","address":"2727 Via Cascadita, San Clemente, CA 92672","latitude":"33.4428","longitude":"-117.6428","nrby1":605,"nrby2":596,"nrby3":628,"nrby4":611,"nrby5":0,"cDLID":true,"cDLPC":false,"cVR":true,"cCDL":false,"cMDT":false,"cQueue":true,"cSST":false},"649":{"name":"Turlock","number":649,"region":"4","officeHours":"0800-1700,0800-1700,0900-1700,0800-1700,0800-1700,n,n","phone":"(800)777-0133","address":"825 E. Monte Vista Avenue, Turlock, CA 95382","latitude":"37.521866","longitude":"-120.839588","nrby1":557,"nrby2":536,"nrby3":658,"nrby4":650,"nrby5":0,"cDLID":true,"cDLPC":false,"cVR":true,"cCDL":false,"cMDT":false,"cQueue":true,"cSST":false},"650":{"name":"Los Banos","number":650,"region":"4","officeHours":"0800-1700,0800-1700,0900-1700,0800-1700,0800-1700,n,n","phone":"(800)777-0133","address":"814 West L Street, Los Banos, CA 93635","latitude":"37.0598","longitude":"-120.8630","nrby1":536,"nrby2":533,"nrby3":649,"nrby4":623,"nrby5":0,"cDLID":true,"cDLPC":false,"cVR":true,"cCDL":false,"cMDT":false,"cQueue":true,"cSST":false},"652":{"name":"West Hollywood","number":652,"region":"5","officeHours":"0800-1700,0800-1700,0900-1700,0800-1700,0800-1700,n,n","phone":"(800)777-0133","address":"936 N Formosa Ave, West Hollywood, CA 90046","latitude":"34.088257","longitude":"-118.345865","nrby1":508,"nrby2":502,"nrby3":510,"nrby4":514,"nrby5":610,"cDLID":false,"cDLPC":false,"cVR":true,"cCDL":false,"cMDT":false,"cQueue":true,"cSST":true},"655":{"name":"Folsom","number":655,"region":"3","officeHours":"0800-1700,0800-1700,0900-1700,0800-1700,0800-1700,n,n","phone":"(800)777-0133","address":"323 E Bidwell A, Folsom, CA 95630","latitude":"38.6741","longitude":"-121.1681","nrby1":625,"nrby2":501,"nrby3":525,"nrby4":602,"nrby5":0,"cDLID":true,"cDLPC":false,"cVR":true,"cCDL":false,"cMDT":false,"cQueue":true,"cSST":false},"656":{"name":"Riverside East","number":656,"region":"7","officeHours":"0800-1700,0800-1700,0900-1700,0800-1700,0800-1700,n,n","phone":"(800)777-0133","address":"6425 Sycamore Canyon Blvd., Riverside, CA 92507","latitude":"33.934500","longitude":"-117.299200","nrby1":545,"nrby2":626,"nrby3":512,"nrby4":612,"nrby5":0,"cDLID":true,"cDLPC":false,"cVR":true,"cCDL":false,"cMDT":false,"cQueue":true,"cSST":true},"657":{"name":"Fontana","number":657,"region":"7","officeHours":"0800-1700,0800-1700,0900-1700,0800-1700,0800-1700,n,n","phone":"(800)777-0133","address":"8026 Hemlock Ave, Fontana, CA 92336","latitude":"34.107862","longitude":"-117.476956","nrby1":612,"nrby2":512,"nrby3":586,"nrby4":545,"nrby5":0,"cDLID":true,"cDLPC":false,"cVR":true,"cCDL":false,"cMDT":false,"cQueue":true,"cSST":true},"658":{"name":"Manteca","number":658,"region":"3","officeHours":"0800-1700,0800-1700,0900-1700,0800-1700,0800-1700,n,n","phone":"(800)777-0133","address":"955 Davis Street, Manteca, CA 95336","latitude":"37.8006","longitude":"-121.2303","nrby1":517,"nrby2":557,"nrby3":642,"nrby4":622,"nrby5":0,"cDLID":true,"cDLPC":false,"cVR":true,"cCDL":false,"cMDT":false,"cQueue":true,"cSST":false},"659":{"name":"Palm Springs","number":659,"region":"8","officeHours":"0800-1700,0800-1700,0900-1700,0800-1700,0800-1700,n,n","phone":"(800)777-0133","address":"950 N. Farrell Drive, Palm Springs, CA 92262","latitude":"33.8366","longitude":"-116.5187","nrby1":578,"nrby2":641,"nrby3":635,"nrby4":626,"nrby5":683,"cDLID":true,"cDLPC":false,"cVR":true,"cCDL":false,"cMDT":false,"cQueue":true,"cSST":false},"660":{"name":"Shafter","number":660,"region":"4","officeHours":"0800-1700,0800-1700,0900-1700,0800-1700,0800-1700,n,n","phone":"(800)777-0133","address":"548 Walker Street, Shafter, CA 93263","latitude":"35.5034","longitude":"-119.2725","nrby1":529,"nrby2":615,"nrby3":679,"nrby4":661,"nrby5":0,"cDLID":true,"cDLPC":false,"cVR":true,"cCDL":false,"cMDT":false,"cQueue":true,"cSST":false},"661":{"name":"Arvin","number":661,"region":"4","officeHours":"0800-1700,0800-1700,0900-1700,0800-1700,0800-1700,n,n","phone":"(800)777-0133","address":"317 Campus Dr., Arvin, CA 93203","latitude":"35.2108","longitude":"-118.8332","nrby1":679,"nrby2":529,"nrby3":660,"nrby4":687,"nrby5":575,"cDLID":true,"cDLPC":false,"cVR":true,"cCDL":false,"cMDT":false,"cQueue":true,"cSST":false},"662":{"name":"Newhall","number":662,"region":"5","officeHours":"0800-1700,0800-1700,0900-1700,0800-1700,0800-1700,n,n","phone":"(800)777-0133","address":"24427 Newhall Avenue, Newhall, CA 91321","latitude":"34.379500","longitude":"-118.532500","nrby1":693,"nrby2":587,"nrby3":637,"nrby4":690,"nrby5":595,"cDLID":true,"cDLPC":false,"cVR":true,"cCDL":false,"cMDT":false,"cQueue":true,"cSST":true},"663":{"name":"Thousand Oaks","number":663,"region":"5","officeHours":"0800-1700,0800-1700,0900-1700,0800-1700,0800-1700,n,n","phone":"(800)777-0133","address":"1810 E. Avenida De Los Arboles, Thousand Oaks, CA 91362","latitude":"34.2113","longitude":"-118.8450","nrby1":637,"nrby2":636,"nrby3":680,"nrby4":560,"nrby5":0,"cDLID":true,"cDLPC":false,"cVR":true,"cCDL":false,"cMDT":false,"cQueue":true,"cSST":false},"668":{"name":"Santa Teresa","number":668,"region":"2","officeHours":"0800-1700,0800-1700,0900-1700,0800-1700,0800-1700,n,n","phone":"(800)777-0133","address":"180 Martinvale Lane, San Jose, CA 95119","latitude":"37.229700","longitude":"-121.778500","nrby1":645,"nrby2":516,"nrby3":640,"nrby4":632,"nrby5":623,"cDLID":true,"cDLPC":false,"cVR":true,"cCDL":true,"cMDT":false,"cQueue":true,"cSST":false},"669":{"name":"El Cajon","number":669,"region":"8","officeHours":"0800-1700,0800-1700,0900-1700,0800-1700,0800-1700,n,n","phone":"(800)777-0133","address":"1450 Graves Avenue, El Cajon, CA 92021","latitude":"32.816800","longitude":"-116.959700","nrby1":506,"nrby2":613,"nrby3":519,"nrby4":676,"nrby5":0,"cDLID":true,"cDLPC":false,"cVR":true,"cCDL":false,"cMDT":false,"cQueue":true,"cSST":true},"670":{"name":"Goleta","number":670,"region":"5","officeHours":"0800-1700,0800-1700,0900-1700,0800-1700,0800-1700,n,n","phone":"(800)777-0133","address":"7127 Hollister Avenue Suite 24/26, Goleta, CA 93117","latitude":"34.4285","longitude":"-119.8765","nrby1":549,"nrby2":560,"nrby3":563,"nrby4":636,"nrby5":0,"cDLID":true,"cDLPC":false,"cVR":true,"cCDL":false,"cMDT":false,"cQueue":true,"cSST":false},"672":{"name":"Temecula","number":672,"region":"8","officeHours":"0800-1700,0800-1700,0900-1700,0800-1700,0800-1700,n,n","phone":"(800)777-0133","address":"27851 Diaz Road, Temecula, CA 92590","latitude":"33.506200","longitude":"-117.161300","nrby1":635,"nrby2":689,"nrby3":596,"nrby4":656,"nrby5":0,"cDLID":true,"cDLPC":false,"cVR":true,"cCDL":false,"cMDT":false,"cQueue":true,"cSST":false},"673":{"name":"Rocklin","number":673,"region":"1","officeHours":"0800-1700,0800-1700,0900-1700,0800-1700,0800-1700,n,n","phone":"(800)777-0133","address":"5245 South Grove, Rocklin, CA 95677","latitude":"38.7874","longitude":"-121.2316","nrby1":543,"nrby2":570,"nrby3":655,"nrby4":541,"nrby5":0,"cDLID":true,"cDLPC":false,"cVR":true,"cCDL":false,"cMDT":false,"cQueue":true,"cSST":false},"676":{"name":"Poway","number":676,"region":"8","officeHours":"0800-1700,0800-1700,0900-1700,0800-1700,0800-1700,n,n","phone":"(800)777-0133","address":"13461 Community Road, Poway, CA 92064","latitude":"32.960200","longitude":"-117.040700","nrby1":669,"nrby2":519,"nrby3":614,"nrby4":506,"nrby5":689,"cDLID":true,"cDLPC":false,"cVR":true,"cCDL":false,"cMDT":false,"cQueue":true,"cSST":false},"677":{"name":"San Ysidro","number":677,"region":"8","officeHours":"0800-1700,0800-1700,0900-1700,0800-1700,0800-1700,n,n","phone":"(800)777-0133","address":"6111 Business Center Court, San Diego, CA 92154","latitude":"32.569300","longitude":"-117.005100","nrby1":613,"nrby2":506,"nrby3":519,"nrby4":669,"nrby5":0,"cDLID":true,"cDLPC":false,"cVR":true,"cCDL":false,"cMDT":false,"cQueue":true,"cSST":true},"679":{"name":"Bakersfield Southwest","number":679,"region":"4","officeHours":"0800-1700,0800-1700,0900-1700,0800-1700,0800-1700,n,n","phone":"(800)777-0133","address":"7000 Schirra Ct, Bakersfield, CA 93313","latitude":"35.317031","longitude":"-119.079704","nrby1":529,"nrby2":661,"nrby3":660,"nrby4":575,"nrby5":615,"cDLID":true,"cDLPC":false,"cVR":true,"cCDL":false,"cMDT":false,"cQueue":true,"cSST":true},"680":{"name":"Simi Valley","number":680,"region":"5","officeHours":"0800-1700,0800-1700,0900-1700,0800-1700,0800-1700,n,n","phone":"(800)777-0133","address":"3855 D - Alamo Street, Simi Valley, CA 93063","latitude":"34.286400","longitude":"-118.723400","nrby1":693,"nrby2":663,"nrby3":637,"nrby4":587,"nrby5":630,"cDLID":true,"cDLPC":false,"cVR":true,"cCDL":false,"cMDT":false,"cQueue":true,"cSST":false},"683":{"name":"Palm Desert","number":683,"region":"8","officeHours":"0800-1700,0800-1700,0900-1700,0800-1700,0800-1700,n,n","phone":"(800)777-0133","address":"74-740 Technology Drive, Palm Desert, CA 92211","latitude":"33.782800","longitude":"-116.357600","nrby1":659,"nrby2":578,"nrby3":0,"nrby4":0,"nrby5":0,"cDLID":true,"cDLPC":false,"cVR":true,"cCDL":false,"cMDT":false,"cQueue":true,"cSST":false},"685":{"name":"El Monte","number":685,"region":"6","officeHours":"0800-1700,0800-1700,0900-1700,0800-1700,0800-1700,n,n","phone":"(800)777-0133","address":"4000 Arden Drive, El Monte, CA 91731","latitude":"34.0804770","longitude":"-118.0447220","nrby1":618,"nrby2":511,"nrby3":509,"nrby4":515,"nrby5":690,"cDLID":true,"cDLPC":false,"cVR":true,"cCDL":false,"cMDT":false,"cQueue":true,"cSST":false},"686":{"name":"Novato","number":686,"region":"1","officeHours":"0800-1700,0800-1700,0900-1700,0800-1700,0800-1700,n,n","phone":"(800)777-0133","address":"936 7th Street A, Novato, CA 94947","latitude":"38.1066","longitude":"-122.5787","nrby1":634,"nrby2":534,"nrby3":554,"nrby4":556,"nrby5":0,"cDLID":true,"cDLPC":false,"cVR":true,"cCDL":false,"cMDT":false,"cQueue":true,"cSST":false},"687":{"name":"Lake Isabella","number":687,"region":"4","officeHours":"0800-1700,0800-1700,0900-1700,0800-1700,0800-1700,n,n","phone":"(800)777-0133","address":"5520 Lake Isabella Road G-1, Lake Isabella, CA 93240","latitude":"35.616825","longitude":"-118.478236","nrby1":0,"nrby2":0,"nrby3":0,"nrby4":0,"nrby5":0,"cDLID":true,"cDLPC":false,"cVR":true,"cCDL":false,"cMDT":false,"cQueue":false,"cSST":false},"689":{"name":"San Marcos Rancheros","number":689,"region":"8","officeHours":"0800-1700,0800-1700,0900-1700,0800-1700,0800-1700,n,n","phone":"1-800-777-0133","address":"590 Rancheros Dr, San Marcos, CA 92069","latitude":"33.140079","longitude":"-117.149742","nrby1":596,"nrby2":676,"nrby3":519,"nrby4":669,"nrby5":0,"cDLID":false,"cDLPC":false,"cVR":true,"cCDL":false,"cMDT":false,"cQueue":true,"cSST":true},"690":{"name":"Palmdale","number":690,"region":"4","officeHours":"0800-1700,0800-1700,0900-1700,0800-1700,0800-1700,n,n","phone":"(800)777-0133","address":"2260 D E. Palmdale, Palmdale, CA 93550","latitude":"34.5793","longitude":"-118.0879","nrby1":595,"nrby2":662,"nrby3":587,"nrby4":510,"nrby5":0,"cDLID":true,"cDLPC":false,"cVR":true,"cCDL":false,"cMDT":false,"cQueue":true,"cSST":false},"692":{"name":"Lompoc DLPC (DL Only)","number":692,"region":"5","officeHours":"0800-1700,0800-1700,0900-1700,0800-1700,0800-1700,n,n","phone":"(800)777-0133","address":"1601 N H St, Lompoc, CA 93436","latitude":"34.663552","longitude":"-120.458380","nrby1":589,"nrby2":563,"nrby3":670,"nrby4":547,"nrby5":549,"cDLID":true,"cDLPC":true,"cVR":false,"cCDL":false,"cMDT":false,"cQueue":true,"cSST":false},"693":{"name":"Granada Hills DLPC (DL Only)","number":693,"region":"5","officeHours":"0800-1700,0800-1700,0900-1700,0800-1700,0800-1700,n,n","phone":"(800)777-0133","address":"16201 San Fernando Mission Blvd, Granada Hills, CA 91344","latitude":"34.273035","longitude":"-118.485866","nrby1":587,"nrby2":515,"nrby3":637,"nrby4":662,"nrby5":680,"cDLID":true,"cDLPC":true,"cVR":false,"cCDL":false,"cMDT":false,"cQueue":true,"cSST":false},"697":{"name":"West Sacramento CDTC","number":697,"region":"3","officeHours":"0700-1600,0700-1600,0800-1600,0700-1600,0700-1600,n,n","phone":"(800)777-0133","address":"2528 Evergreen Avenue, West Sacramento, CA 95691","latitude":"38.577000","longitude":"-121.544000","nrby1":0,"nrby2":0,"nrby3":0,"nrby4":0,"nrby5":0,"cDLID":false,"cDLPC":false,"cVR":false,"cCDL":true,"cMDT":false,"cQueue":false,"cSST":false},"698":{"name":"Stanton DLPC (DL Only)","number":698,"region":"7","officeHours":"0800-1700,0800-1700,0900-1700,0800-1700,0800-1700,n,n","phone":"(800)777-0133","address":"12645 Beach Blvd, Stanton, CA 90680","latitude":"33.778429","longitude":"-117.994127","nrby1":611,"nrby2":607,"nrby3":542,"nrby4":507,"nrby5":628,"cDLID":true,"cDLPC":true,"cVR":false,"cCDL":false,"cMDT":false,"cQueue":true,"cSST":false},"699":{"name":"Fontana CDTC","number":699,"region":"7","officeHours":"0700-1600,0700-1600,0800-1600,0700-1600,0700-1600,n,n","phone":"(800)777-0133","address":"10207 Poplar Ave, Fontana, CA 92335","latitude":"34.067682","longitude":"-117.461396","nrby1":0,"nrby2":0,"nrby3":0,"nrby4":0,"nrby5":0,"cDLID":false,"cDLPC":false,"cVR":false,"cCDL":true,"cMDT":false,"cQueue":false,"cSST":false},"822":{"name":"Mendota","number":822,"region":"4","officeHours":"n,n,n,0900-1600,0900-1600,n,n","phone":"(800)777-0133","address":"655 Quince Street, Mendota, CA 93640","latitude":"36.754100","longitude":"-120.382600","nrby1":533,"nrby2":650,"nrby3":505,"nrby4":0,"nrby5":0,"cDLID":false,"cDLPC":false,"cVR":false,"cCDL":false,"cMDT":false,"cQueue":false,"cSST":false,"disclaimers":[{"id":24,"section":"OfficeHours","order":0,"english":"This office is closed 12:00 Noon through 1:15 PM daily","spanish":"Diariamente, esta oficina está cerrada desde las 12:00 PM del mediodía hasta la 1:15 PM de la tarde"},{"id":92,"section":"OfficeHours","order":1,"english":"Appointments are not available at this location.","spanish":"Appointments are not available at this location."}]}}